City_ID,City,Lat,Lng,Max Temp,Humidity,Cloudiness,Wind Speed,Country,Date
0,ancud,-41.8697,-73.8203,17.68,49,39,2.24,CL,1743884426
1,tsiombe,-25.3,45.4833,23.55,85,44,4.19,MG,1743884427
2,teguise,29.0605,-13.564,18.12,64,20,3.6,ES,1743884229
3,adamstown,-25.066,-130.1015,24.2,78,100,6.43,PN,1743884429
4,ierapetra,35.01,25.7353,14.52,73,43,1.79,GR,1743884431
5,praia da vitoria,38.7333,-27.0667,14.14,72,40,9.3,PT,1743884432
6,badger,64.8,-147.5333,7.93,60,0,0.0,US,1743884433
7,hermanus,-34.4187,19.2345,20.45,82,100,5.16,ZA,1743884435
8,klyuchi,52.2667,79.1667,5.56,56,62,5.22,RU,1743884436
9,blackmans bay,-43.0167,147.3167,14.29,64,77,0.89,AU,1743884437
10,usinsk,65.9939,57.5281,-15.2,94,54,4.26,RU,1743884438
11,grytviken,-54.2811,-36.5092,0.59,64,14,2.25,GS,1743884439
12,haiku-pauwela,20.9219,-156.3051,26.81,70,20,12.07,US,1743884441
13,macau,22.2006,113.5461,18.85,82,40,2.57,MO,1743884442
14,waitangi,-43.9535,-176.5597,13.79,90,80,4.53,NZ,1743884443
15,invercargill,-46.4,168.35,10.01,92,81,1.34,NZ,1743884444
16,sumbe,-11.2061,13.8437,25.64,83,100,2.55,AO,1743884445
17,taoudenni,22.6783,-3.9836,32.06,12,61,4.62,ML,1743884447
18,metu,8.3,35.5833,15.08,91,95,1.37,ET,1743884448
19,nova sintra,14.8667,-24.7167,22.46,79,99,9.08,CV,1743884449
20,camana,-16.6228,-72.7111,24.48,76,100,3.78,PE,1743884450
21,isafjordur,66.0755,-23.124,3.91,93,96,4.88,IS,1743884452
22,longyearbyen,78.2186,15.6401,-10.09,85,75,3.09,SJ,1743884453
23,port-aux-francais,-49.35,70.2167,5.75,74,6,11.85,TF,1743884454
24,constancia,24.2231,-107.1869,25.94,25,0,6.56,MX,1743884455
25,tura,25.5198,90.2201,23.12,32,0,2.43,IN,1743884456
26,xai-xai,-25.0519,33.6442,22.94,88,96,4.12,MZ,1743884388
27,thompson,55.7435,-97.8558,-3.91,42,20,5.66,CA,1743884459
28,crane,31.3974,-102.3501,6.55,78,100,10.44,US,1743884460
29,murzuq,25.9155,13.9184,25.15,22,60,1.85,LY,1743884461
30,kilinochchi,9.3961,80.3982,24.46,90,99,1.76,LK,1743884462
31,san juanito,28.0,-107.5833,9.57,22,14,3.78,MX,1743884463
32,corleone,37.8134,13.3017,10.75,91,80,0.93,IT,1743884465
33,mili,6.0815,171.735,27.53,81,98,9.02,MH,1743884466
34,alice springs,-23.7,133.8833,14.75,88,0,2.06,AU,1743884467
35,quiberon,47.4841,-3.1196,13.39,81,0,2.59,FR,1743884468
36,pacocha,-17.5833,-71.3333,21.08,68,0,4.12,PE,1743884470
37,kodiak,57.79,-152.4072,5.73,100,100,6.17,US,1743884471
38,djambala,-2.5447,14.7533,20.25,95,100,1.35,CG,1743884472
39,kiunga,-6.1219,141.2906,22.79,100,100,0.76,PG,1743884473
40,edinburgh of the seven seas,-37.0676,-12.3116,19.36,92,10,10.22,SH,1743884474
41,port saint john's,-31.6229,29.5448,21.44,87,100,6.23,ZA,1743884476
42,puerto natales,-51.7236,-72.4875,12.25,58,0,1.54,CL,1743884477
43,rabaul,-4.1967,152.1721,27.0,78,100,2.24,PG,1743884478
44,geraldton,-28.7667,114.6,19.23,88,23,4.63,AU,1743884202
45,bilibino,68.0546,166.4372,-20.32,99,99,1.38,RU,1743884481
46,labrador city,52.9463,-66.9114,-1.05,64,75,6.17,CA,1743884482
47,bulan,12.6667,123.9333,24.37,89,100,2.74,PH,1743884483
48,anadyr,64.75,177.4833,-13.72,77,0,2.68,RU,1743884484
49,chajul,15.4853,-91.0342,21.88,67,47,1.98,GT,1743884485
50,yuzhno-kurilsk,44.0306,145.8556,0.87,88,15,2.12,RU,1743884487
51,bayji,34.9311,43.487,20.44,40,0,3.37,IQ,1743884488
52,barentu,15.1139,37.5928,26.25,45,80,4.46,ER,1743884489
53,christchurch,-43.5333,172.6333,14.41,88,100,1.33,NZ,1743884351
54,saipan,15.1355,145.701,27.39,78,40,5.66,MP,1743884492
55,iqaluit,63.7506,-68.5145,-17.95,64,0,7.2,CA,1743884493
56,holualoa,19.6228,-155.9522,26.42,70,0,3.09,US,1743884494
57,albany,42.6001,-73.9662,5.42,91,100,2.24,US,1743884213
58,whitehorse,60.7161,-135.0538,7.43,61,75,6.17,CA,1743884498
59,liwale,-9.7667,37.9333,20.5,99,80,1.42,TZ,1743884500
60,uturoa,-16.7333,-151.4333,28.16,74,78,5.64,PF,1743884501
61,boulazac,45.1167,0.75,14.6,62,4,2.47,FR,1743884503
62,wang nam yen,13.5033,102.1812,25.67,88,100,2.06,TH,1743884504
63,alaghsas,17.0187,8.0168,29.54,7,0,3.5,NE,1743884506
64,montego bay,18.4712,-77.9188,28.89,65,20,10.29,JM,1743884407
65,puerto ayora,-0.7393,-90.3518,27.53,92,95,1.79,EC,1743884508
66,nema,57.5067,50.5011,-1.6,87,96,1.76,RU,1743884509
67,vadso,70.0744,29.7487,-6.91,73,73,5.14,NO,1743884510
68,tannum sands,-23.9504,151.3693,21.53,88,17,2.06,AU,1743884512
69,yellowknife,62.456,-114.3525,-1.99,62,20,7.2,CA,1743884513
70,valera,9.3178,-70.6036,28.07,68,99,1.05,VE,1743884428
71,papatowai,-46.5619,169.4708,10.4,86,100,2.65,NZ,1743884515
72,kingston,17.997,-76.7936,30.65,66,20,11.32,JM,1743884394
73,laem sing,12.4816,102.0738,27.14,82,49,0.91,TH,1743884518
74,dzialoszyn,51.117,18.8652,0.79,58,4,9.26,PL,1743884519
75,tiksi,71.6872,128.8694,-24.48,100,100,1.03,RU,1743884520
76,jamestown,42.097,-79.2353,18.34,88,100,6.69,US,1743884521
77,puerto colombia,10.9878,-74.9547,32.05,66,95,10.82,CO,1743884523
78,port elizabeth,-33.918,25.5701,19.06,95,98,1.34,ZA,1743884524
79,plesetsk,62.708,40.2916,-11.56,94,20,1.84,RU,1743884526
80,hilvan,37.5869,38.9551,11.49,71,0,3.6,TR,1743884528
81,bethel,41.3712,-73.414,6.75,82,100,2.24,US,1743884277
82,burabay,53.0838,70.3138,6.15,68,66,6.55,KZ,1743884531
83,dongola,19.1667,30.4833,27.43,7,8,4.64,SD,1743884532
84,gadzhiyevo,69.2551,33.3362,-4.93,85,100,6.28,RU,1743884533
85,jacobina,-11.1806,-40.5183,32.75,31,80,4.1,BR,1743884535
86,nemuro,43.3236,145.575,1.56,87,7,2.88,JP,1743884536
87,la ronge,55.1001,-105.2842,6.14,26,20,2.57,CA,1743884537
88,ribeira grande,38.5167,-28.7,14.22,88,75,9.83,PT,1743884538
89,ta`u,-14.2336,-169.5144,28.46,75,79,4.63,AS,1743884539
90,port alfred,-33.5906,26.891,18.43,95,89,7.8,ZA,1743884542
91,waspan,14.7419,-83.9717,33.27,37,2,5.16,NI,1743884543
92,betio village,1.358,172.9211,26.02,83,35,6.91,KI,1743884544
93,ituango,7.1712,-75.764,26.41,87,100,1.2,CO,1743884545
94,lebu,-37.6167,-73.65,16.61,73,58,3.97,CL,1743884547
95,porto novo,6.4965,2.6036,28.9,82,59,5.12,BJ,1743884295
96,nikel,69.4128,30.222,-14.41,95,87,2.21,RU,1743884549
97,ushuaia,-54.8,-68.3,12.81,62,0,2.06,AR,1743884550
98,dwarka,22.2394,68.9678,26.59,72,0,6.59,IN,1743884551
99,udachny,66.4167,112.4,-8.75,99,100,1.29,RU,1743884553
100,utrik,11.2278,169.8474,26.92,77,12,7.99,MH,1743884555
101,aasiaat,68.7098,-52.8699,-11.36,78,94,3.15,GL,1743884556
102,sao felipe,-14.8167,-41.3833,32.11,27,58,2.57,BR,1743884557
103,bubaque,11.2833,-15.8333,23.86,74,54,7.75,GW,1743884559
104,ulladulla,-35.35,150.4667,9.72,75,0,2.56,AU,1743884560
105,burang,30.25,81.1667,-13.25,43,0,1.42,CN,1743884561
106,west island,-12.1568,96.8225,24.99,94,100,1.54,CC,1743884562
107,tangalle,6.024,80.7911,25.55,91,96,2.8,LK,1743884564
108,hithadhoo,-0.6,73.0833,28.34,75,76,3.42,MV,1743884565
109,petropavlovsk-kamchatsky,53.0452,158.6483,-0.67,100,100,0.0,RU,1743884566
110,derzhavinsk,51.1,66.3167,9.6,59,74,7.41,KZ,1743884568
111,piatykhatky,48.4133,33.7106,10.01,87,44,7.31,UA,1743884569
112,fort bragg,35.139,-79.006,32.17,49,40,4.63,US,1743883985
113,whistler,50.1164,-122.9695,15.57,31,75,2.06,CA,1743884571
114,khilok,51.3674,110.4676,2.73,65,100,3.81,RU,1743884572
115,severo-yeniseyskiy,60.3725,93.0408,-10.52,91,100,4.82,RU,1743884573
116,kalaleh,37.3807,55.4916,19.8,61,100,3.33,IR,1743884575
117,amguri,26.8,94.5333,24.55,28,78,0.93,IN,1743884576
118,marsh harbour,26.5412,-77.0636,25.08,72,0,6.96,BS,1743884577
119,fale old settlement,-9.3852,-171.2468,28.3,71,89,0.68,TK,1743884578
120,muscat,23.6139,58.5922,29.03,27,0,2.98,OM,1743884336
121,kristiansund,63.1115,7.732,4.36,75,75,1.54,NO,1743884581
122,togur,58.3631,82.8265,0.18,98,100,5.34,RU,1743884582
123,la sarre,48.8002,-79.1996,0.46,100,100,2.68,CA,1743884584
124,dryden,49.7833,-92.7503,-0.84,40,100,6.69,CA,1743884585
125,marmaris,36.855,28.2742,13.13,89,10,1.52,TR,1743884585
126,mansa,29.9833,75.3833,24.78,15,1,0.66,IN,1743884587
127,grand falls-windsor,48.9332,-55.6649,0.84,56,96,2.68,CA,1743884589
128,nsunga,-1.1439,31.3947,18.24,96,100,0.99,TZ,1743884590
129,brampton,43.6834,-79.7663,9.88,95,100,2.06,CA,1743884365
130,howrah,22.5892,88.3103,28.0,83,20,3.6,IN,1743884592
131,ilulissat,69.2167,-51.1,-11.99,79,100,4.12,GL,1743884593
132,selkirk,50.1436,-96.8845,2.88,53,100,3.13,CA,1743884595
133,licheng,23.2955,113.8284,17.21,86,63,1.01,CN,1743884596
134,yaren,-0.5472,166.916,27.33,79,17,6.24,NR,1743884597
135,port mathurin,-19.6833,63.4167,27.44,80,100,6.24,MU,1743884598
136,beau vallon,-20.4189,57.6953,26.13,78,40,3.09,MU,1743884527
137,aykhal,66.0,111.5,-6.65,96,100,2.33,RU,1743884601
138,rumoi,43.9344,141.6428,1.42,88,81,3.24,JP,1743884602
139,bamboo flat,11.7,92.7167,25.05,94,75,1.03,IN,1743884603
140,umm ruwaba,12.9061,31.2158,29.69,12,6,5.65,SD,1743884606
141,codrington,-38.2667,141.9667,12.16,69,100,6.65,AU,1743884607
142,lubao,14.9167,120.55,27.84,80,100,2.29,PH,1743884608
143,sopur,34.3,74.4667,9.37,45,5,1.89,IN,1743884609
144,baikonur,45.6167,63.3167,16.62,38,100,3.31,KZ,1743884611
145,raduzhny,62.0961,77.475,-3.97,96,100,4.63,RU,1743884612
146,margaret river,-33.95,115.0667,16.77,81,95,6.16,AU,1743884613
147,gwadabawa,13.3561,5.2366,31.87,6,100,2.62,NG,1743884615
148,ghanzi,-21.5667,21.7833,18.9,88,100,2.8,BW,1743884617
149,dieppe,49.75,1.1667,10.57,82,0,5.56,FR,1743884618
150,corner brook,48.9667,-57.9484,-0.83,72,54,2.34,CA,1743884619
151,flying fish cove,-10.4217,105.6791,26.82,83,75,2.57,CX,1743884620
152,okha,53.5739,142.9478,-7.46,99,72,2.11,RU,1743884622
153,lihue,21.9789,-159.3672,24.77,83,100,8.75,US,1743884623
154,kirakira,-10.4544,161.9205,26.51,85,100,1.35,SB,1743884624
155,kiruna,67.8557,20.2251,-3.49,86,100,1.54,SE,1743884625
156,longview,32.5007,-94.7405,13.97,94,100,3.6,US,1743884568
157,timmins,48.4669,-81.3331,2.9,81,100,7.72,CA,1743884631
158,ixtapa,20.7,-105.2,24.57,65,20,7.2,MX,1743884633
159,vernon,50.2581,-119.2691,14.74,36,23,2.06,CA,1743884546
160,palikir - national government center,6.9248,158.1611,26.63,89,100,2.57,FM,1743884635
161,nguruka,-5.1092,31.0419,19.26,95,100,1.27,TZ,1743884636
162,galle,6.0367,80.217,27.03,81,100,2.6,LK,1743884637
163,mount pleasant,32.7941,-79.8626,29.08,68,75,8.23,US,1743884638
164,la passe,45.5549,-0.8967,12.63,83,9,3.01,FR,1743884640
165,wanning,18.8003,110.3967,22.99,96,100,3.28,CN,1743884641
166,panaba,21.2833,-88.2667,34.82,32,0,10.61,MX,1743884642
167,guixi,28.2886,117.2133,14.91,64,10,0.89,CN,1743884643
168,san antonio de pale,-1.4014,5.6325,27.9,78,100,5.4,GQ,1743884645
169,stanley,54.868,-1.6985,5.01,80,75,3.6,GB,1743884646
170,jinghong,21.991,100.7341,21.64,46,89,0.96,CN,1743884647
171,buarcos,40.166,-8.8768,13.86,86,100,3.67,PT,1743884648
172,baneh,35.9975,45.8853,8.1,87,36,4.12,IR,1743884414
173,puerto armuelles,8.2833,-82.8667,27.83,75,100,0.45,PA,1743884650
174,ust-nera,64.5667,143.2,-17.36,100,100,1.33,RU,1743884652
175,mount isa,-20.7333,139.5,22.87,60,100,3.09,AU,1743884653
176,ugoofaaru,5.6667,73.0,28.81,69,46,1.8,MV,1743884654
177,gulf breeze,30.3571,-87.1639,25.7,86,100,8.23,US,1743884646
178,constantia,44.1833,28.65,10.39,85,91,5.73,RO,1743884645
179,touros,-5.1989,-35.4608,27.29,80,100,5.67,BR,1743884658
180,oak island,33.9166,-78.1611,26.16,76,0,5.66,US,1743884659
181,punta arenas,-53.15,-70.9167,10.06,76,0,2.57,CL,1743884661
182,howard springs,-12.497,131.047,25.95,94,97,1.43,AU,1743884662
183,sao vicente,-23.9631,-46.3919,21.1,26,100,2.06,BR,1743884663
184,talnakh,69.4865,88.3972,-24.01,90,31,2.04,RU,1743884664
185,st. john's,47.5649,-52.7093,0.71,81,75,10.29,CA,1743884433
186,enewetak,11.3474,162.3373,27.21,69,78,8.82,MH,1743884667
187,wailua homesteads,22.0669,-159.378,24.44,92,100,8.75,US,1743884668
188,point fortin,10.1833,-61.6833,26.59,78,100,5.19,TT,1743884669
189,bandarbeyla,9.4942,50.8122,26.2,76,22,3.61,SO,1743884670
190,xapuri,-10.6517,-68.5044,26.36,70,84,2.04,BR,1743884671
191,isangel,-19.55,169.2667,27.06,89,40,1.54,VU,1743884672
192,aksu,41.1231,80.2644,15.04,21,100,2.44,CN,1743884674
193,bredasdorp,-34.5322,20.0403,19.18,85,100,5.77,ZA,1743884676
194,ibiza,38.9088,1.433,16.07,76,0,3.09,ES,1743884677
195,college,64.8569,-147.8028,7.97,49,75,0.0,US,1743884678
196,raduzhnyy,62.0961,77.475,-3.97,96,100,4.63,RU,1743884679
197,katiola,8.1333,-5.1,27.95,59,97,1.79,CI,1743884680
198,piti village,13.4626,144.6933,27.49,83,20,3.09,GU,1743884682
199,adrar,20.5022,-10.0711,30.37,17,100,5.47,MR,1743884683
200,tchintabaraden,15.8969,5.7985,30.51,9,100,3.75,NE,1743884684
201,hamilton,39.1834,-84.5333,18.69,94,100,3.6,US,1743884618
202,vorgashor,67.5833,63.95,-10.96,96,100,2.19,RU,1743884686
203,rongelap,11.1635,166.8941,26.62,80,15,8.26,MH,1743884687
204,tyazhinskiy,56.116,88.524,0.78,85,100,5.38,RU,1743884689
205,acapulco de juarez,16.8634,-99.8901,28.9,74,0,5.14,MX,1743884690
206,siwa oasis,29.2041,25.5195,24.11,27,5,5.76,EG,1743884691
207,kidal,18.4411,1.4078,33.69,9,3,4.76,ML,1743884692
208,cabo san lucas,22.8909,-109.9124,23.2,33,0,3.6,MX,1743884693
209,walvis bay,-22.9575,14.5053,17.53,82,27,1.54,NA,1743884697
210,vryburg,-26.9566,24.7284,19.12,73,80,4.18,ZA,1743884698
211,yanchep,-31.55,115.6833,19.04,67,22,2.24,AU,1743884700
212,navolato,24.7672,-107.6944,25.1,11,0,5.59,MX,1743884701
213,dhamar,14.5427,44.4051,16.59,62,84,3.47,YE,1743884702
214,zaozersk,69.4005,32.4476,-5.78,92,100,4.04,RU,1743884703
215,tamandare,-8.7597,-35.1047,27.57,76,91,4.54,BR,1743884705
216,tazovsky,67.4667,78.7,-21.64,99,100,0.58,RU,1743884706
217,amlapura,-8.45,115.6167,23.17,86,37,1.96,ID,1743884708
218,lakatoro,-16.0999,167.4164,27.44,82,16,1.26,VU,1743884709
219,ikovka,55.6089,64.9375,4.23,84,99,2.17,RU,1743884710
220,maputo,-25.9653,32.5892,25.13,87,20,3.09,MZ,1743884713
221,new norfolk,-42.7826,147.0587,14.95,66,90,6.16,AU,1743884498
222,el alto,-4.2714,-81.2147,25.2,70,99,3.94,PE,1743884715
223,mae hong son,19.3003,97.9685,24.23,65,56,0.43,TH,1743884716
224,lake havasu city,34.4839,-114.3224,26.24,14,0,7.2,US,1743884717
225,laguna,38.421,-121.4238,22.35,42,0,1.54,US,1743884719
226,romanovo,52.6182,81.2271,4.48,59,32,6.4,RU,1743884720
227,banda aceh,5.5577,95.3222,26.9,79,100,3.67,ID,1743884721
228,nova vicosa,-17.8919,-39.3719,27.39,69,18,3.8,BR,1743884723
229,kruisfontein,-34.0033,24.7314,18.86,81,100,6.76,ZA,1743884725
230,atakpame,7.5333,1.1333,28.29,64,50,4.33,TG,1743884726
231,ternate,0.8,127.4,26.14,83,100,1.59,ID,1743884728
232,tymovskoye,50.8456,142.655,-9.88,98,52,1.43,RU,1743884730
233,eagle,43.6954,-116.354,16.41,29,0,2.57,US,1743884731
234,colonia,50.9333,6.95,12.19,49,0,2.06,DE,1743884732
235,fuglafjordur,62.244,-6.814,4.77,77,32,5.59,FO,1743884733
236,mutuali,-14.8706,37.0044,20.73,90,34,1.4,MZ,1743884735
237,gornopravdinsk,60.05,69.9,0.05,90,7,4.34,RU,1743884736
238,tamanrasset,22.785,5.5228,27.95,14,3,8.23,DZ,1743884737
239,mejit,10.2753,170.8646,27.23,77,77,8.27,MH,1743884738
240,port lincoln,-34.7333,135.8667,13.78,87,27,3.42,AU,1743884739
241,queenstown,-31.8976,26.8753,13.33,94,49,2.9,ZA,1743884741
242,lucapa,-8.4192,20.7447,19.55,96,100,1.45,AO,1743884742
243,forster,-32.1667,152.5167,14.5,78,3,2.74,AU,1743884743
244,masterton,-40.9597,175.6575,13.13,94,41,1.95,NZ,1743884744
245,arraial do cabo,-22.9661,-42.0278,23.92,83,100,3.6,BR,1743884727
246,susuman,62.7833,148.1667,-8.27,96,100,0.9,RU,1743884747
247,champerico,14.3,-91.9167,34.89,75,6,6.26,GT,1743884748
248,ribadesella,43.4614,-5.0596,14.57,79,100,1.78,ES,1743884749
249,avarua,-21.2078,-159.775,28.03,74,40,3.09,CK,1743884751
250,polyarnyy,69.1989,33.4478,-4.81,84,100,6.5,RU,1743884753
251,manaure,11.7751,-72.4445,32.63,46,98,9.31,CO,1743884754
252,ilam,26.9167,87.9167,19.43,24,0,3.46,NP,1743884755
253,swift current,50.2834,-107.8014,12.45,20,0,6.17,CA,1743884651
254,pacific grove,36.6177,-121.9166,19.82,76,0,4.47,US,1743884758
255,sur,22.5667,59.5289,28.25,27,0,4.55,OM,1743884759
256,kinel'-cherkassy,53.4706,51.4743,8.78,88,99,2.81,RU,1743884760
257,amriswil,47.547,9.2984,13.74,61,100,1.36,CH,1743884761
258,lagunillas,10.1301,-71.2595,30.12,59,99,3.63,VE,1743884693
259,bikenibeu village,1.3673,173.1241,25.98,94,100,6.17,KI,1743884764
260,acarau,-2.8856,-40.12,26.36,86,100,6.03,BR,1743884765
261,sinabang,2.4803,96.3801,26.44,82,100,1.41,ID,1743884766
262,san ramon de la nueva oran,-23.1322,-64.326,21.35,38,57,2.32,AR,1743884767
263,tocoa,15.6833,-86.0,32.79,22,0,1.96,HN,1743884769
264,keflavik,64.0049,-22.5624,8.24,100,100,6.69,IS,1743884771
265,keetmanshoop,-26.5833,18.1333,21.49,63,88,1.93,NA,1743884774
266,chikwawa,-16.0335,34.8009,22.13,92,12,0.65,MW,1743884775
267,kashgar,39.4547,75.9797,18.56,20,40,5.0,CN,1743884776
268,moires,35.0532,24.8744,13.4,75,62,0.89,GR,1743884777
269,hasaki,35.7333,140.8333,14.75,71,98,7.85,JP,1743884780
270,tralee,52.2704,-9.7026,11.42,71,42,6.14,IE,1743884781
271,el granada,37.5027,-122.4694,20.06,68,75,2.57,US,1743884782
272,arkhara,49.4212,130.0842,0.46,95,60,1.15,RU,1743884783
273,prieska,-29.6641,22.7474,24.97,27,88,5.11,ZA,1743884785
274,urangan,-25.3,152.9,21.71,81,23,3.98,AU,1743884522
275,lodja,-3.4833,23.4333,21.97,96,90,1.69,CD,1743884787
276,santa terezinha,-29.9002,-50.0904,22.39,53,34,5.19,BR,1743884788
277,luderitz,-26.6481,15.1594,17.83,82,23,1.77,NA,1743884789
278,carnarvon,-24.8667,113.6333,24.22,67,0,4.24,AU,1743884791
279,chonchi,-42.6128,-73.8092,18.95,41,28,0.68,CL,1743884792
280,sidi qacem,34.2215,-5.7078,14.14,87,3,1.31,MA,1743884793
281,shakawe,-18.3667,21.85,22.27,70,100,2.1,BW,1743884794
282,pionerskiy,54.9508,20.2275,1.91,59,100,13.45,RU,1743884795
283,lintong,34.378,109.2089,11.92,43,17,1.32,CN,1743884797
284,juegang,32.3174,121.1855,8.58,67,87,2.35,CN,1743884798
285,sao gabriel da cachoeira,-0.1303,-67.0892,25.06,96,88,1.04,BR,1743884799
286,papao,-17.75,-149.55,30.82,78,100,6.45,PF,1743884800
287,georgetown,5.4112,100.3354,27.96,78,20,1.54,MY,1743884697
288,capela,-10.5033,-37.0528,26.83,63,100,4.65,BR,1743884802
289,enshi,30.3,109.4833,14.66,80,97,0.72,CN,1743884804
290,bhilwara,25.35,74.6333,27.44,14,0,4.06,IN,1743884805
291,kolwezi,-10.7148,25.4667,16.65,96,89,1.3,CD,1743884807
292,saint-francois,46.4154,3.9054,13.71,76,39,1.03,FR,1743884808
293,tromso,69.6496,18.957,0.01,86,100,9.26,NO,1743884781
294,paradip garh,20.3167,86.6167,26.97,84,2,5.55,IN,1743884810
295,celestun,20.8667,-90.4,35.04,43,0,3.47,MX,1743884813
296,santander,43.4647,-3.8044,16.37,73,100,0.89,ES,1743884681
297,kununurra,-15.7667,128.7333,24.99,94,75,0.51,AU,1743884817
298,port-cartier,50.0334,-66.8654,-1.82,92,100,3.27,CA,1743884818
299,girifalco,38.8243,16.4241,10.05,88,0,2.57,IT,1743884819
300,ath thawrah,35.8469,38.5443,14.98,61,88,5.67,SY,1743884820
301,timbuktu,16.7735,-3.0074,35.07,7,7,4.47,ML,1743884822
302,cobram,-35.9167,145.65,8.87,50,95,1.74,AU,1743884823
303,port macquarie,-31.4333,152.9167,13.93,89,36,1.34,AU,1743884824
304,'ain el turk,35.7438,-0.7693,14.38,58,75,3.6,DZ,1743884825
305,nelson bay,-32.7167,152.15,16.11,89,29,1.34,AU,1743884826
306,coahuayana de hidalgo,18.7,-103.6583,31.54,42,0,3.56,MX,1743884828
307,nouadhibou,20.931,-17.0347,20.99,68,100,6.17,MR,1743884829
308,napoleon,41.3923,-84.1252,9.08,89,100,4.14,US,1743884790
309,torghay,49.6339,63.4981,11.05,57,5,4.43,KZ,1743884831
310,olonkinbyen,70.9221,-8.7187,-0.53,88,100,6.53,SJ,1743884832
311,barreirinhas,-2.7469,-42.8264,26.52,86,100,3.4,BR,1743884834
312,horta,38.5333,-28.6333,13.8,90,75,10.28,PT,1743884835
313,hawaiian paradise park,19.5933,-154.9731,27.23,70,0,3.09,US,1743884836
314,fuerte olimpo,-21.0415,-57.8738,24.86,35,32,3.17,PY,1743884837
315,karratha,-20.7377,116.8463,27.67,56,0,3.1,AU,1743884839
316,kapuskasing,49.4169,-82.4331,2.05,93,100,5.66,CA,1743884840
317,onguday,50.75,86.15,0.87,61,16,1.27,RU,1743884841
318,challapata,-18.9,-66.7667,13.98,52,66,5.94,BO,1743884842
319,pontivy,48.0,-3.0,12.22,86,4,1.32,FR,1743884843
320,solnechnyy,50.7214,136.6319,-1.42,93,46,2.05,RU,1743884845
321,saynshand,44.8824,110.1163,6.59,24,92,4.49,MN,1743884846
322,urzhar,47.093,81.6294,4.34,72,1,2.59,KZ,1743884847
323,puerto aysen,-45.4,-72.7,21.46,49,7,0.41,CL,1743884849
324,frontera,26.9333,-101.45,21.61,42,0,4.12,MX,1743884850
325,edson,53.5835,-116.4356,13.08,21,0,4.63,CA,1743884591
326,afaahiti,-17.75,-149.2833,26.81,81,100,6.87,PF,1743884852
327,shimoda,34.6667,138.95,13.07,68,43,2.62,JP,1743884853
328,jalalaqsi,3.3766,45.5996,27.02,70,52,7.18,SO,1743884855
329,pervomayskoye,43.919,46.7102,9.36,91,100,0.94,RU,1743884856
330,parede,38.6928,-9.3541,16.21,82,40,4.12,PT,1743884857
331,lompoc,34.6391,-120.4579,25.23,35,0,5.66,US,1743884858
332,iquique,-20.2208,-70.1431,21.45,80,100,3.05,CL,1743884638
333,miracema do tocantins,-9.5618,-48.3967,26.26,84,96,1.86,BR,1743884860
334,castillos,-34.1667,-53.8333,15.94,58,0,4.04,UY,1743884862
335,mahanje,-9.9333,35.3333,18.69,97,80,0.79,TZ,1743884863
336,plouzane,48.3833,-4.6167,13.83,76,0,2.57,FR,1743884817
337,mezica,46.5214,14.8544,6.72,67,90,1.28,SI,1743884865
338,saint-juery,43.9488,2.2103,12.56,89,13,1.39,FR,1743884867
339,bereeda,11.8704,51.0579,25.09,84,14,5.72,SO,1743884868
340,klamath falls,42.2249,-121.7817,14.98,34,0,4.63,US,1743884683
341,portland,45.5234,-122.6762,21.47,38,75,2.06,US,1743884696
342,san gabriel,34.0961,-118.1058,26.83,16,0,2.57,US,1743884871
343,nova olinda do norte,-3.8881,-59.0942,27.26,91,100,0.52,BR,1743884872
344,labytnangi,66.6572,66.4183,-9.16,96,100,2.08,RU,1743884874
345,smithers,54.7804,-127.1743,12.18,40,75,2.57,CA,1743884875
346,tolanaro,-25.0319,46.9987,24.14,88,100,5.05,MG,1743884876
347,inza,53.8533,46.3586,6.21,92,100,2.89,RU,1743884642
348,kaspiyskiy,45.3929,47.3707,11.17,76,76,7.1,RU,1743884879
349,iskateley,67.6803,53.1512,-12.43,88,44,3.78,RU,1743884881
350,vylkove,45.4021,29.586,11.46,73,100,4.74,UA,1743884882
351,tofol,5.3248,163.0078,27.53,77,95,8.28,FM,1743884883
352,vilyuysk,63.7553,121.6247,0.63,99,100,4.64,RU,1743884884
353,brookings,44.3114,-96.7984,5.25,44,0,9.77,US,1743884885
354,arvayheer,46.2639,102.775,5.3,18,99,3.49,MN,1743884887
355,mugumu,-1.85,34.7,16.98,97,100,1.86,TZ,1743884888
356,houghton,47.1219,-88.569,1.71,54,20,12.35,US,1743884889
357,sola,-13.8833,167.55,27.54,75,99,0.94,VU,1743884890
358,ponta delgada,37.7333,-25.6667,14.4,72,40,8.23,PT,1743884891
359,brisas de zicatela,15.8369,-97.0419,30.29,54,0,3.09,MX,1743884893
360,lidzbark warminski,54.1259,20.5795,0.61,61,13,8.85,PL,1743884894
361,nar'yan-mar,67.6713,53.087,-12.36,88,45,3.82,RU,1743884895
362,palopo,-2.9996,120.1921,24.11,94,100,0.66,ID,1743884896
363,barra de santo antonio,-9.4047,-35.5072,27.62,71,98,4.15,BR,1743884897
364,kone,-21.0595,164.8658,24.85,90,100,0.3,NC,1743884898
365,new kingman-butler,35.265,-114.0323,18.76,22,0,7.72,US,1743884900
366,poxoreo,-15.8372,-54.3892,28.73,66,20,1.84,BR,1743884830
367,trevelin,-43.0858,-71.4639,20.65,27,25,0.53,AR,1743884902
368,guilin,25.2819,110.2864,16.06,63,100,1.55,CN,1743884903
369,berezovyy,51.6667,135.7,-1.81,94,58,1.71,RU,1743884904
370,turinsk,58.0458,63.696,1.52,87,13,3.19,RU,1743884906
371,ambovombe,-25.1667,46.0833,23.53,84,97,4.38,MG,1743884907
372,chui,-33.6971,-53.4616,17.06,60,1,4.24,UY,1743884908
373,muroto-misakicho,33.2833,134.15,16.82,71,60,9.5,JP,1743884909
374,salacgriva,57.7536,24.3581,-1.82,62,0,6.64,LV,1743884911
375,johi,26.6921,67.6133,33.68,13,0,6.34,PK,1743884913
376,karachi,24.9056,67.0822,25.9,57,0,3.09,PK,1743884715
377,trairi,-3.2778,-39.2689,26.0,89,100,2.81,BR,1743884775
378,remire-montjoly,4.9167,-52.2667,30.02,70,20,4.63,GF,1743884917
379,puerto deseado,-47.7503,-65.8938,16.82,42,61,4.12,AR,1743884918
380,manismata,-2.4667,111.0333,23.52,98,98,0.73,ID,1743884919
381,island harbour,50.724,-1.2758,10.97,38,3,4.02,GB,1743884921
382,moyynkum,44.2914,72.9469,11.58,65,4,2.37,KZ,1743884922
383,houlton,46.1262,-67.8403,6.23,42,100,2.57,US,1743884923
384,kourou,5.1552,-52.6478,27.33,77,69,3.66,GF,1743884722
385,al wajh,26.2455,36.4525,22.97,40,0,2.06,SA,1743884926
386,beipiao,41.7919,120.7792,5.01,31,0,1.46,CN,1743884927
387,dudinka,69.4058,86.1778,-24.69,100,79,2.58,RU,1743884872
388,rantauprapat,2.1,99.8333,23.07,98,100,0.3,ID,1743884929
389,ust'-barguzin,53.45,108.9833,0.48,95,100,2.03,RU,1743884643
390,barhi,23.9,80.8,26.13,17,0,1.76,IN,1743884932
391,ad darb,17.7229,42.2526,29.64,46,95,2.82,SA,1743884933
392,winnemucca,40.973,-117.7357,13.03,28,0,1.54,US,1743884934
393,alice town,25.7167,-79.3,27.08,72,0,8.5,BS,1743884935
394,sechura,-5.5569,-80.8222,29.54,55,67,4.3,PE,1743884936
395,huarmey,-10.0681,-78.1522,23.86,74,62,5.29,PE,1743884938
396,qarqaraly,49.4058,75.4742,1.54,76,14,3.46,KZ,1743884939
397,palmer,42.1584,-72.3287,5.75,75,100,4.12,US,1743884780
398,nguigmi,14.2495,13.1092,29.93,10,100,5.27,NE,1743884941
399,gaogou,34.0175,119.1886,6.91,75,0,2.74,CN,1743884942
400,kondopoga,62.2057,34.2614,-4.55,76,59,1.4,RU,1743884943
401,novobod,39.0108,70.1508,7.74,93,100,2.64,TJ,1743884945
402,newman,37.3138,-121.0208,23.36,43,99,1.34,US,1743884946
403,hanceville,34.0607,-86.7675,30.65,55,14,7.11,US,1743884947
404,coquimbo,-29.9533,-71.3436,18.85,72,20,5.66,CL,1743884882
405,hultsfred,57.4882,15.8436,-0.72,55,3,2.23,SE,1743884949
406,visby,57.6409,18.296,0.12,59,20,9.26,SE,1743884758
407,vimmerby,57.6659,15.8552,-0.64,52,5,2.26,SE,1743884952
408,antonio enes,-16.2325,39.9086,25.51,84,64,1.5,MZ,1743884954
409,sisimiut,66.9395,-53.6735,-9.57,82,99,4.34,GL,1743884955
410,phan thiet,10.9333,108.1,24.13,90,40,2.56,VN,1743884956
411,nsanje,-16.92,35.262,21.69,87,5,0.82,MW,1743884958
412,narragansett,41.4501,-71.4495,6.25,79,100,7.72,US,1743884959
413,lorengau,-2.0226,147.2712,27.19,78,90,2.93,PG,1743884960
414,nea kallikrateia,40.3167,23.0667,14.18,74,6,3.8,GR,1743884961
415,shihezi,44.3,86.0333,13.11,52,99,1.55,CN,1743884962
416,al bawiti,28.3492,28.8659,22.61,16,1,1.26,EG,1743884964
417,vennesla,58.2694,7.9741,3.49,71,0,3.09,NO,1743884965
418,urambo,-5.0667,32.05,19.02,93,90,1.98,TZ,1743884966
419,at taj,24.2049,23.2857,24.35,10,0,5.54,LY,1743884967
420,si satchanalai,17.5169,99.7598,27.13,70,100,1.68,TH,1743884968
421,borogontsy,62.6683,131.1683,-9.21,91,100,4.59,RU,1743884969
422,mazagao,-0.115,-51.2894,24.01,97,100,1.62,BR,1743884973
423,ferkessedougou,9.6,-5.2,34.03,29,94,3.19,CI,1743884975
424,usogorsk,63.4106,48.6872,-8.37,93,100,2.16,RU,1743884976
425,lovisa,60.4566,26.2251,-4.28,47,45,3.37,FI,1743884977
426,concepcion del oro,24.6333,-101.4167,21.41,14,0,12.29,MX,1743884978
427,namibe,-15.1961,12.1522,22.36,82,100,3.26,AO,1743884980
428,dunedin,-45.8742,170.5036,12.05,93,100,2.29,NZ,1743884981
429,yarmouth,41.7057,-70.2286,5.03,89,100,3.6,US,1743884982
430,boromo,11.75,-2.9333,36.1,13,100,1.77,BF,1743884983
431,bonthe,7.5264,-12.505,26.27,80,100,5.1,SL,1743884984
432,auki,-8.7676,160.7034,25.19,87,83,1.02,SB,1743884986
433,happy valley-goose bay,53.3168,-60.3315,3.17,35,75,1.54,CA,1743884987
434,fortuna,40.5982,-124.1573,19.51,59,20,2.24,US,1743884989
435,mont-tremblant,46.1949,-74.6264,2.55,96,100,6.1,CA,1743884520
436,loa janan,-0.583,117.095,22.53,98,97,0.09,ID,1743884992
437,lucas,41.6501,-83.6666,8.86,90,100,4.63,US,1743884994
438,tahe,52.3333,124.7333,-3.52,93,60,1.37,CN,1743884995
439,chibougamau,49.9168,-74.3659,-0.21,93,100,5.66,CA,1743884997
440,hammerfest,70.6634,23.6821,-1.75,86,100,1.54,NO,1743884998
441,kalmunai,7.4167,81.8167,25.79,85,100,1.29,LK,1743884999
442,chifeng,42.2683,118.9636,2.55,28,0,1.2,CN,1743885000
443,baardheere,2.3446,42.2764,27.76,62,74,5.36,SO,1743885002
444,simanggang,1.2472,111.4528,23.99,100,100,1.03,MY,1743885003
445,narasannapeta,18.4167,84.05,26.13,82,86,2.38,IN,1743885004
446,san juan de betulia,9.2735,-75.241,33.89,44,83,2.43,CO,1743885006
447,silver springs shores,29.1044,-82.0206,33.29,49,22,4.34,US,1743885007
448,al jawf,29.5,38.75,19.46,20,0,0.9,SA,1743885008
449,'alaqahdari dishu,30.4374,63.313,27.43,19,4,1.34,AF,1743885009
450,mont-laurier,46.5501,-75.4993,5.43,97,100,2.74,CA,1743885010
451,palangkaraya,-2.2,113.8333,23.61,98,100,0.64,ID,1743885012
452,sitka,57.0531,-135.33,10.94,58,100,9.26,US,1743885013
453,bodo,67.28,14.405,5.02,96,75,7.72,NO,1743885014
454,al qusayr,34.5091,36.5798,11.08,74,93,0.93,SY,1743885015
455,tazacorte,28.629,-17.9293,19.54,91,20,5.66,ES,1743885017
456,nuuk,64.1835,-51.7216,-7.66,67,75,7.2,GL,1743885018
457,vila velha,-20.3297,-40.2925,26.97,90,75,6.17,BR,1743884592
458,colares,38.7992,-9.4469,16.29,84,40,4.12,PT,1743885021
459,alofi,-19.0595,-169.9187,26.94,78,100,5.14,NU,1743885023
460,mersa matruh,31.3525,27.2453,17.06,74,8,4.7,EG,1743885025
461,lewistown,40.5992,-77.5714,13.45,89,100,0.89,US,1743885026
462,fray luis beltran,-39.3167,-65.7667,22.16,33,96,9.57,AR,1743885027
463,anzio,41.4853,12.6179,14.14,79,0,1.83,IT,1743885028
464,sumbawanga,-7.9667,31.6167,14.86,97,100,1.31,TZ,1743885029
465,tokoroa,-38.2333,175.8667,14.59,80,17,0.39,NZ,1743885030
466,vilyuchinsk,52.9306,158.4028,0.15,93,100,2.71,RU,1743885032
467,bengkulu,-3.8004,102.2655,24.79,89,99,1.51,ID,1743885033
468,gagarin,55.5529,34.9954,-0.29,56,100,9.35,RU,1743885034
469,odessa,46.4775,30.7326,8.77,82,100,5.68,UA,1743885035
470,salalah,17.0151,54.0924,25.05,78,0,0.51,OM,1743885036
471,formosa do rio preto,-11.0483,-45.1931,24.08,75,100,3.79,BR,1743885038
472,nandu,22.8525,110.8233,20.47,82,100,1.13,CN,1743885039
473,tulun,54.5611,100.5792,1.91,60,91,5.01,RU,1743885040
474,sao joao dos patos,-6.495,-43.7022,30.79,49,88,2.26,BR,1743884988
475,baganga,7.5739,126.56,24.71,91,100,2.11,PH,1743885042
476,nanning,22.8167,108.3167,20.25,67,100,1.16,CN,1743885044
477,gaurnadi,22.9667,90.2333,24.82,83,0,2.95,BD,1743885045
478,wynyard,-41.0,145.7167,12.33,84,100,1.79,AU,1743885046
479,olyokminsk,60.3736,120.4264,-2.7,89,100,1.98,RU,1743885047
480,mudgee,-32.5943,149.5871,10.29,81,0,0.7,AU,1743885048
481,prince rupert,54.3161,-130.3201,12.05,61,100,13.89,CA,1743885050
482,teruel,40.6667,-0.6667,9.18,71,100,3.14,ES,1743885051
483,lusambo,-4.9667,23.45,21.49,98,95,0.8,CD,1743885052
484,abatskoye,56.2875,70.4555,2.84,92,72,2.83,RU,1743885054
485,laredo,27.5064,-99.5075,27.16,39,0,8.75,US,1743884810
486,khandyga,62.6667,135.6,-18.47,99,100,1.46,RU,1743885057
487,espumoso,-28.7247,-52.8497,19.62,57,0,4.29,BR,1743885058
488,bernal,-5.45,-80.75,31.81,46,90,5.35,PE,1743885059
489,bluefield,37.2698,-81.2223,27.79,42,40,3.6,US,1743885060
490,beyneu,45.3167,55.2,17.25,56,100,6.3,KZ,1743885062
491,canutama,-6.5339,-64.3831,26.85,91,69,1.32,BR,1743885063
492,lunglei,22.8833,92.7333,18.27,85,11,1.36,IN,1743885064
493,kamyshevatskaya,46.4132,37.9563,9.25,91,100,7.29,RU,1743885066
494,antalaha,-14.9003,50.2788,23.86,89,5,3.04,MG,1743885067
495,greymouth,-42.4667,171.2,13.07,82,100,2.38,NZ,1743885068
496,kirensk,57.7853,108.1119,-1.36,90,96,6.59,RU,1743885069
497,pisco,-13.7,-76.2167,25.03,65,0,7.72,PE,1743885070
498,weno,7.4515,151.8468,27.06,82,100,8.04,FM,1743885072
499,kerikeri,-35.2268,173.9474,13.28,94,0,1.44,NZ,1743885073
500,kavieng,-2.5744,150.7967,27.87,74,98,2.91,PG,1743885074
501,esmeraldas,-19.7625,-44.3139,22.6,88,100,2.55,BR,1743885076
502,isabela,6.7085,121.9711,25.94,84,93,1.75,PH,1743885079
503,sweetwater,25.7634,-80.3731,30.01,66,75,7.72,US,1743884489
504,yadrin,55.9405,46.2062,3.04,77,100,3.69,RU,1743885081
505,puerto san jose,13.9256,-90.8244,34.4,58,21,5.79,GT,1743885082
506,east london,-33.0153,27.9116,20.64,81,100,5.44,ZA,1743885084
507,dalandzadgad,43.5708,104.425,8.3,17,53,2.96,MN,1743885086
508,hohhot,40.8106,111.6522,-1.84,54,0,3.0,CN,1743884996
509,mount pearl,47.5166,-52.7813,0.18,80,75,10.29,CA,1743885089
510,zaragoza,41.6561,-0.8773,16.56,59,0,4.12,ES,1743885079
511,kolonia town,6.964,158.206,27.0,89,100,2.68,FM,1743885093
512,ayutla de los libres,16.9,-99.2167,33.76,29,4,5.19,MX,1743885094
513,saldanha,-33.0117,17.9442,22.31,54,41,4.84,ZA,1743885096
514,qaqortoq,60.7167,-46.0333,-2.8,87,100,1.88,GL,1743884942
515,benguela,-12.5763,13.4055,24.92,82,100,1.54,AO,1743885098
516,hami,42.8,93.45,14.45,18,100,4.09,CN,1743885099
517,newquay,50.4132,-5.0819,15.42,41,0,8.23,GB,1743884963
518,iwye,53.9299,25.7727,-0.01,75,100,9.48,BY,1743885103
519,shimanovsk,52.0,127.7,-3.85,96,83,1.41,RU,1743885104
520,zyryanovsk,49.7386,84.2719,-0.29,91,92,0.43,KZ,1743885106
521,ankazoabo,-22.2833,44.5167,21.66,85,100,0.22,MG,1743885107
522,kamogawa,35.1,140.1,12.22,82,71,2.58,JP,1743885109
523,sao felix do xingu,-6.6447,-51.995,24.4,94,95,0.57,BR,1743885110
524,noumea,-22.2763,166.4572,27.22,99,73,1.03,NC,1743885111
525,puerto cabezas,14.0351,-83.3888,29.98,70,20,4.12,NI,1743885112
526,bandon,51.7469,-8.7425,12.77,77,8,7.73,IE,1743885113
527,juan griego,11.0817,-63.9655,26.83,70,86,5.87,VE,1743885114
528,buka,40.8108,69.1986,17.57,70,100,0.44,UZ,1743885116
529,sittwe,20.15,92.9,26.4,86,99,2.48,MM,1743885117
530,chul'man,56.8479,124.9104,-15.15,98,70,1.59,RU,1743885119
531,portage la prairie,49.9728,-98.2926,4.38,35,100,6.53,CA,1743884964
532,chegdomyn,51.1167,133.0167,-3.24,98,100,1.25,RU,1743885121
533,orenburg,51.7727,55.0988,8.01,62,84,4.11,RU,1743884948
534,atafu village,-8.5421,-172.5159,28.15,71,84,1.81,TK,1743885124
535,barcelos,41.5388,-8.6151,11.14,83,96,1.69,PT,1743885125
536,lagoa,39.05,-27.9833,13.45,73,100,7.68,PT,1743885126
537,long beach,33.767,-118.1892,25.14,27,0,4.47,US,1743885127
538,rudsar,37.1376,50.288,17.78,70,70,3.35,IR,1743885131
539,matthew town,20.95,-73.6667,27.23,66,54,9.54,BS,1743885132
540,westport,41.1415,-73.3579,7.93,84,100,7.2,US,1743885133
541,taroa,8.7058,171.2275,27.28,80,92,8.12,MH,1743885134
542,el grao,39.798,-0.1321,17.71,67,54,2.46,ES,1743885137
543,beja,36.7256,9.1817,11.14,90,19,1.85,TN,1743885138
544,klyavlino,54.2649,52.0267,4.56,87,100,1.53,RU,1743885139
545,bahia de kino,28.8333,-111.9333,21.07,41,3,6.89,MX,1743885140
546,jiuquan,39.7432,98.5174,8.46,19,46,2.31,CN,1743885142
547,san salvador,13.6894,-89.1872,29.93,78,20,5.66,SV,1743885112
548,princeville,45.7668,-61.2985,1.95,77,100,3.6,CA,1743885144
549,kanggye,40.9695,126.5852,3.43,94,99,0.67,KP,1743885145
550,san luis de la loma,17.2706,-100.8939,29.57,57,6,5.07,MX,1743885147
551,brebu manastirei,45.1833,25.7667,7.51,82,69,1.41,RO,1743885148
552,altay,47.8667,88.1167,0.46,56,54,3.75,CN,1743885149
553,phan rang-thap cham,11.5667,108.9833,23.47,90,96,1.92,VN,1743885150
554,reggane,26.7158,0.1714,27.19,12,100,3.61,DZ,1743885151
555,isla mujeres,21.2311,-86.731,31.72,73,1,7.94,MX,1743885153
556,antofagasta,-23.65,-70.4,19.6,80,6,3.93,CL,1743884764
557,beledweyne,4.7358,45.2036,28.09,55,21,8.37,SO,1743885155
558,vacaria,-28.5122,-50.9339,15.88,62,0,4.57,BR,1743885156
559,saacow,1.6279,42.4407,27.0,66,79,4.73,SO,1743885157
560,jabor,5.921,169.6434,27.38,83,99,8.69,MH,1743885158
561,goz beida,13.95,20.55,28.66,10,0,5.41,TD,1743885160
562,petrove,48.3247,33.2562,9.64,91,65,7.24,UA,1743885161
563,chiredzi,-21.05,31.6667,21.42,73,62,2.0,ZW,1743885162
564,aral,40.5156,81.2636,16.64,18,100,4.1,CN,1743885163
565,easton,40.6884,-75.2207,10.14,73,100,3.6,US,1743885165
566,lata,40.1629,-8.3327,10.09,91,100,1.3,PT,1743885166
567,preobrazheniye,42.9019,133.9064,3.5,99,100,4.57,RU,1743885167
568,batticaloa,7.7102,81.6924,26.07,83,95,1.12,LK,1743885169
569,shibata,37.95,139.3333,7.93,81,94,1.03,JP,1743885170
570,quthing,-30.4,27.7003,13.78,78,35,2.75,LS,1743885172
571,toamasina,-18.1667,49.3833,24.0,94,40,1.03,MG,1743885174
572,saudarkrokur,65.7461,-19.6394,6.0,93,100,6.53,IS,1743885175
573,yangambi,0.8102,24.4336,21.85,99,100,0.83,CD,1743885176
574,roberval,48.5168,-72.2324,2.35,64,100,3.09,CA,1743884986
575,linxia chengguanzhen,35.6003,103.2064,6.47,21,100,0.98,CN,1743885178
576,fort st. john,56.2499,-120.8529,16.94,22,40,7.2,CA,1743885179
577,cidreira,-30.1811,-50.2056,21.54,54,0,4.73,BR,1743885181
